{"type":"FeatureCollection","features":[{"type":"Feature","id":1,"geometry":{"type":"Point","coordinates":[-82.345115088759442,29.641208090317321]},"properties":{"id":1,"JTYPE":"BLP","ASSETID":"BLP027","NAME":"South HPNP Bldg 212"}},{"type":"Feature","id":2,"geometry":{"type":"Point","coordinates":[-82.349515104148281,29.636138079685448]},"properties":{"id":2,"JTYPE":"BLP","ASSETID":"BLP031B","NAME":"Archer Road Garage 9 Level 3 NW @ Elevator"}},{"type":"Feature","id":3,"geometry":{"type":"Point","coordinates":[-82.349565104649912,29.636218079398535]},"properties":{"id":3,"JTYPE":"BLP","ASSETID":"BLP031C","NAME":"Archer Road Garage Level 3 SW @ Elevator"}},{"type":"Feature","id":4,"geometry":{"type":"Point","coordinates":[-82.34837510307392,29.636228082576711]},"properties":{"id":4,"JTYPE":"BLP","ASSETID":"BLP031D","NAME":"Archer Road Garage 9 Level 3 SE"}},{"type":"Feature","id":5,"geometry":{"type":"Point","coordinates":[-82.348615102380847,29.636868082131102]},"properties":{"id":5,"JTYPE":"BLP","ASSETID":"BLP032A","NAME":"Archer Road Garage 9 Level 4 NE"}},{"type":"Feature","id":6,"geometry":{"type":"Point","coordinates":[-82.3495051039082,29.636148079505958]},"properties":{"id":6,"JTYPE":"BLP","ASSETID":"BLP032B","NAME":"Archer Road Garage Level 4 NW @ Elevator"}},{"type":"Feature","id":7,"geometry":{"type":"Point","coordinates":[-82.349545103173654,29.636228079536014]},"properties":{"id":7,"JTYPE":"BLP","ASSETID":"BLP032C","NAME":"Archer Road Garage 9 Level 4 SW  @ Elevator"}},{"type":"Feature","id":8,"geometry":{"type":"Point","coordinates":[-82.348365102710346,29.636238082309902]},"properties":{"id":8,"JTYPE":"BLP","ASSETID":"BLP032D","NAME":"Archer Road Garage Level 4 SE"}},{"type":"Feature","id":9,"geometry":{"type":"Point","coordinates":[-82.34859510171114,29.636878082140054]},"properties":{"id":9,"JTYPE":"BLP","ASSETID":"BLP033A","NAME":"Archer Road Garage 9 Level 5 NE"}},{"type":"Feature","id":10,"geometry":{"type":"Point","coordinates":[-82.3494851034025,29.636168080046726]},"properties":{"id":10,"JTYPE":"BLP","ASSETID":"BLP033B","NAME":"Archer Road Garage 9 Level 5 NW @ Elevator"}},{"type":"Feature","id":11,"geometry":{"type":"Point","coordinates":[-82.349535104947066,29.636248078886375]},"properties":{"id":11,"JTYPE":"BLP","ASSETID":"BLP033C","NAME":"Archer Road Garage 9 Level 5 SW @ Elevator"}},{"type":"Feature","id":12,"geometry":{"type":"Point","coordinates":[-82.348345104003201,29.636258083612024]},"properties":{"id":12,"JTYPE":"BLP","ASSETID":"BLP033D","NAME":"Archer Road Garage 9 Level 5 SE"}},{"type":"Feature","id":13,"geometry":{"type":"Point","coordinates":[-82.345705093561321,29.6390380898759]},"properties":{"id":13,"JTYPE":"BLP","ASSETID":"BLP036","NAME":"West Dental Tower"}},{"type":"Feature","id":15,"geometry":{"type":"Point","coordinates":[-82.356645076659106,29.649328055976746]},"properties":{"id":15,"JTYPE":"BLP","ASSETID":"BLP038","NAME":"BasketBall Practice Facility SW"}},{"type":"Feature","id":16,"geometry":{"type":"Point","coordinates":[-82.35763507735436,29.649358052846736]},"properties":{"id":16,"JTYPE":"BLP","ASSETID":"BLP039","NAME":"NW Springs Residential Complex"}},{"type":"Feature","id":17,"geometry":{"type":"Point","coordinates":[-82.367745108898959,29.640028026668173]},"properties":{"id":17,"JTYPE":"BLP","ASSETID":"BLP040","NAME":"Softball Field S.W. Rec Cntr"}},{"type":"Feature","id":18,"geometry":{"type":"Point","coordinates":[-82.368855109289811,29.640038022964799]},"properties":{"id":18,"JTYPE":"BLP","ASSETID":"BLP042","NAME":"West Parking Lot S.W. Rec Cntr"}},{"type":"Feature","id":19,"geometry":{"type":"Point","coordinates":[-82.367605111241247,29.638798027410015]},"properties":{"id":19,"JTYPE":"BLP","ASSETID":"BLP043","NAME":"Tennis Courts S.W. Rec Cntr"}},{"type":"Feature","id":20,"geometry":{"type":"Point","coordinates":[-82.367565113832313,29.637998028426662]},"properties":{"id":20,"JTYPE":"BLP","ASSETID":"BLP044","NAME":"South Parking Lot S.W. Rec Cntr"}},{"type":"Feature","id":21,"geometry":{"type":"Point","coordinates":[-82.337235072247182,29.645238113042396]},"properties":{"id":21,"JTYPE":"BLP","ASSETID":"BLP045A","NAME":"Norman Garage Level 3 S.E."}},{"type":"Feature","id":22,"geometry":{"type":"Point","coordinates":[-82.33768507323208,29.645228111579726]},"properties":{"id":22,"JTYPE":"BLP","ASSETID":"BLP045B","NAME":"Norman Garage Level 3 S.W."}},{"type":"Feature","id":23,"geometry":{"type":"Point","coordinates":[-82.337695071515341,29.6458481117959]},"properties":{"id":23,"JTYPE":"BLP","ASSETID":"BLP045C","NAME":"Norman Garage Level 3 N.W."}},{"type":"Feature","id":24,"geometry":{"type":"Point","coordinates":[-82.337255072943009,29.645218112505045]},"properties":{"id":24,"JTYPE":"BLP","ASSETID":"BLP046A","NAME":"Norman Garage Level 2 S.E."}},{"type":"Feature","id":25,"geometry":{"type":"Point","coordinates":[-82.337695072713643,29.645208111297642]},"properties":{"id":25,"JTYPE":"BLP","ASSETID":"BLP046B","NAME":"Norman Garage Level 2 S.W."}},{"type":"Feature","id":26,"geometry":{"type":"Point","coordinates":[-82.337715072041632,29.645838110699369]},"properties":{"id":26,"JTYPE":"BLP","ASSETID":"BLP046C","NAME":"Norman Garage Level 2 N.W."}},{"type":"Feature","id":27,"geometry":{"type":"Point","coordinates":[-82.337265070633208,29.645838111886366]},"properties":{"id":27,"JTYPE":"BLP","ASSETID":"BLP046D","NAME":"Norman Garage Level 2 N.E."}},{"type":"Feature","id":28,"geometry":{"type":"Point","coordinates":[-82.337265072245515,29.645208112669184]},"properties":{"id":28,"JTYPE":"BLP","ASSETID":"BLP047A","NAME":"Norman Garage Level 1 S.E."}},{"type":"Feature","id":29,"geometry":{"type":"Point","coordinates":[-82.337715073091815,29.645198111103117]},"properties":{"id":29,"JTYPE":"BLP","ASSETID":"BLP047B","NAME":"Norman Garage Level 1 S.W."}},{"type":"Feature","id":30,"geometry":{"type":"Point","coordinates":[-82.337735071709403,29.645818110973327]},"properties":{"id":30,"JTYPE":"BLP","ASSETID":"BLP047C","NAME":"Norman Garage Level 1 N.W."}},{"type":"Feature","id":31,"geometry":{"type":"Point","coordinates":[-82.337275072062127,29.645828112083908]},"properties":{"id":31,"JTYPE":"BLP","ASSETID":"BLP047D","NAME":"Norman Garage Level 1 N.E."}},{"type":"Feature","id":32,"geometry":{"type":"Point","coordinates":[-82.351055070679237,29.650428072332161]},"properties":{"id":32,"JTYPE":"BLP","ASSETID":"BLP048","NAME":"ODome Garage Level 1"}},{"type":"Feature","id":33,"geometry":{"type":"Point","coordinates":[-82.351035070648749,29.650438071865036]},"properties":{"id":33,"JTYPE":"BLP","ASSETID":"BLP049","NAME":"ODome Garage Level 2"}},{"type":"Feature","id":34,"geometry":{"type":"Point","coordinates":[-82.359185079757452,29.648538048116787]},"properties":{"id":34,"JTYPE":"BLP","ASSETID":"BLP051","NAME":"Bruton-Geer South"}},{"type":"Feature","id":35,"geometry":{"type":"Point","coordinates":[-82.351915091055488,29.641838072061805]},"properties":{"id":35,"JTYPE":"BLP","ASSETID":"BLP053","NAME":"West Gale Lemerand Drive Parking Lot"}},{"type":"Feature","id":36,"geometry":{"type":"Point","coordinates":[-82.348375098291299,29.638298081988836]},"properties":{"id":36,"JTYPE":"BLP","ASSETID":"BLP054","NAME":"Shands Mediacl Plaza Parking Lot"}},{"type":"Feature","id":37,"geometry":{"type":"Point","coordinates":[-82.347015067786245,29.650158083216141]},"properties":{"id":37,"JTYPE":"BLP","ASSETID":"BLP055","NAME":"Florida Pool Rec Center"}},{"type":"Feature","id":38,"geometry":{"type":"Point","coordinates":[-82.348235066997489,29.651168079135019]},"properties":{"id":38,"JTYPE":"BLP","ASSETID":"BLP056","NAME":"North End Zone Plaza East"}},{"type":"Feature","id":39,"geometry":{"type":"Point","coordinates":[-82.349015066937667,29.651178076976269]},"properties":{"id":39,"JTYPE":"BLP","ASSETID":"BLP057","NAME":"North End Zone Plaza West"}},{"type":"Feature","id":40,"geometry":{"type":"Point","coordinates":[-82.366035119632656,29.635258033911231]},"properties":{"id":40,"JTYPE":"BLP","ASSETID":"BLP058","NAME":"Entomology/Nemotology North"}},{"type":"Feature","id":41,"geometry":{"type":"Point","coordinates":[-82.346405068936122,29.649588084991642]},"properties":{"id":41,"JTYPE":"BLP","ASSETID":"BLP059","NAME":"East of Infirmary"}},{"type":"Feature","id":42,"geometry":{"type":"Point","coordinates":[-82.350045074709698,29.648168075254144]},"properties":{"id":42,"JTYPE":"BLP","ASSETID":"BLP060","NAME":"Gator Corner Front Door"}},{"type":"Feature","id":43,"geometry":{"type":"Point","coordinates":[-82.368895116727259,29.637078025100955]},"properties":{"id":43,"JTYPE":"BLP","ASSETID":"BLP061","NAME":"Harn Parking Lot North"}},{"type":"Feature","id":44,"geometry":{"type":"Point","coordinates":[-82.350425075631222,29.647758074297332]},"properties":{"id":44,"JTYPE":"BLP","ASSETID":"BLP063","NAME":"Gator Corner Rear"}},{"type":"Feature","id":45,"geometry":{"type":"Point","coordinates":[-82.342435086777002,29.641078098558481]},"properties":{"id":45,"JTYPE":"BLP","ASSETID":"BLP064","NAME":"Garage 1 Level 1"}},{"type":"Feature","id":46,"geometry":{"type":"Point","coordinates":[-82.352235082065221,29.646068069295833]},"properties":{"id":46,"JTYPE":"BLP","ASSETID":"BLP065","NAME":"West Trusler Hall"}},{"type":"Feature","id":47,"geometry":{"type":"Point","coordinates":[-82.347345067353032,29.650548082257654]},"properties":{"id":47,"JTYPE":"BLP","ASSETID":"BLP066","NAME":"East/West Rd. @ Fl. Pool"}},{"type":"Feature","id":48,"geometry":{"type":"Point","coordinates":[-82.338585074815725,29.644788109107594]},"properties":{"id":48,"JTYPE":"BLP","ASSETID":"BLP067","NAME":"W Panhellenic & SW 8th"}},{"type":"Feature","id":49,"geometry":{"type":"Point","coordinates":[-82.340955069228286,29.648118101267368]},"properties":{"id":49,"JTYPE":"BLP","ASSETID":"BLP068","NAME":"West of Fine Arts A"}},{"type":"Feature","id":50,"geometry":{"type":"Point","coordinates":[-82.342545062281857,29.651488096546977]},"properties":{"id":50,"JTYPE":"BLP","ASSETID":"BLP069","NAME":"Library West NE Corner"}},{"type":"Feature","id":51,"geometry":{"type":"Point","coordinates":[-82.347855096254179,29.63919808369662]},"properties":{"id":51,"JTYPE":"BLP","ASSETID":"BLP071","NAME":"Garage 3 Level 1 North"}},{"type":"Feature","id":52,"geometry":{"type":"Point","coordinates":[-82.350705086303549,29.643658074463012]},"properties":{"id":52,"JTYPE":"BLP","ASSETID":"BLP072A","NAME":"Garage 5 Level 3 NE"}},{"type":"Feature","id":53,"geometry":{"type":"Point","coordinates":[-82.350725088809781,29.642938074054879]},"properties":{"id":53,"JTYPE":"BLP","ASSETID":"BLP072B","NAME":"Garage 5 Level 3 SE"}},{"type":"Feature","id":54,"geometry":{"type":"Point","coordinates":[-82.351395089067793,29.642948072493088]},"properties":{"id":54,"JTYPE":"BLP","ASSETID":"BLP072C","NAME":"Garage 5 Level 3 SW"}},{"type":"Feature","id":55,"geometry":{"type":"Point","coordinates":[-82.351375087292254,29.643668072033922]},"properties":{"id":55,"JTYPE":"BLP","ASSETID":"BLP072D","NAME":"Garage 5 Level 3 NW"}},{"type":"Feature","id":56,"geometry":{"type":"Point","coordinates":[-82.343315076151228,29.645618095308294]},"properties":{"id":56,"JTYPE":"BLP","ASSETID":"BLP073A","NAME":"Garage 4 Level 3 NW"}},{"type":"Feature","id":57,"geometry":{"type":"Point","coordinates":[-82.342665075638919,29.64560809663492]},"properties":{"id":57,"JTYPE":"BLP","ASSETID":"BLP073B","NAME":"Garage 4 Level 3 NE"}},{"type":"Feature","id":58,"geometry":{"type":"Point","coordinates":[-82.343315078081929,29.644998095333481]},"properties":{"id":58,"JTYPE":"BLP","ASSETID":"BLP073C","NAME":"Garage 4 Level 3 SW"}},{"type":"Feature","id":59,"geometry":{"type":"Point","coordinates":[-82.342635077617444,29.644998096460625]},"properties":{"id":59,"JTYPE":"BLP","ASSETID":"BLP073D","NAME":"Garage 4 Level 3 SE"}},{"type":"Feature","id":60,"geometry":{"type":"Point","coordinates":[-82.345045080798812,29.644038090070968]},"properties":{"id":60,"JTYPE":"BLP","ASSETID":"BLP074","NAME":"Carr Hall & Rogers Hall"}},{"type":"Feature","id":61,"geometry":{"type":"Point","coordinates":[-82.350305083148896,29.644788075453469]},"properties":{"id":61,"JTYPE":"BLP","ASSETID":"BLP075","NAME":"Gale Lemerand Dr. & Museum Rd"}},{"type":"Feature","id":62,"geometry":{"type":"Point","coordinates":[-82.342795064545626,29.650528095836933]},"properties":{"id":62,"JTYPE":"BLP","ASSETID":"BLP076","NAME":"Plaza of the Americas"}},{"type":"Feature","id":63,"geometry":{"type":"Point","coordinates":[-82.335865074529636,29.644278116675515]},"properties":{"id":63,"JTYPE":"BLP","ASSETID":"BLP077","NAME":"East Panhellenic & SW 11th"}},{"type":"Feature","id":64,"geometry":{"type":"Point","coordinates":[-82.347335068382677,29.649968081748195]},"properties":{"id":64,"JTYPE":"BLP","ASSETID":"BLP080","NAME":"Chlorine Phone N of Fla Gym"}},{"type":"Feature","id":65,"geometry":{"type":"Point","coordinates":[-82.348045097135554,29.638608084027219]},"properties":{"id":65,"JTYPE":"BLP","ASSETID":"BLP081A","NAME":"Garage 3 Level 3 West"}},{"type":"Feature","id":66,"geometry":{"type":"Point","coordinates":[-82.347605097499951,29.638158084087035]},"properties":{"id":66,"JTYPE":"BLP","ASSETID":"BLP081B","NAME":"Garage 3 Level 3 South"}},{"type":"Feature","id":67,"geometry":{"type":"Point","coordinates":[-82.347815095649906,29.63922808390878]},"properties":{"id":67,"JTYPE":"BLP","ASSETID":"BLP081C","NAME":"Garage 3 Level 3 North"}},{"type":"Feature","id":68,"geometry":{"type":"Point","coordinates":[-82.347435096527349,29.638718085199848]},"properties":{"id":68,"JTYPE":"BLP","ASSETID":"BLP081D","NAME":"Garage 3 Level 3 East"}},{"type":"Feature","id":69,"geometry":{"type":"Point","coordinates":[-82.350695086460433,29.643668074392373]},"properties":{"id":69,"JTYPE":"BLP","ASSETID":"BLP082A","NAME":"Garage 5 Level 4 N.E."}},{"type":"Feature","id":70,"geometry":{"type":"Point","coordinates":[-82.350705089178717,29.642948075323769]},"properties":{"id":70,"JTYPE":"BLP","ASSETID":"BLP082B","NAME":"Garage 5 Level 4 S.E"}},{"type":"Feature","id":71,"geometry":{"type":"Point","coordinates":[-82.351375089540923,29.642958072060612]},"properties":{"id":71,"JTYPE":"BLP","ASSETID":"BLP082C","NAME":"Garage 5 Level 4 S.W."}},{"type":"Feature","id":72,"geometry":{"type":"Point","coordinates":[-82.35135508759933,29.643678072500382]},"properties":{"id":72,"JTYPE":"BLP","ASSETID":"BLP082D","NAME":"Garage 5 Level 4 N.W."}},{"type":"Feature","id":73,"geometry":{"type":"Point","coordinates":[-82.343295076270508,29.6456280954589]},"properties":{"id":73,"JTYPE":"BLP","ASSETID":"BLP083A","NAME":"Garage 4 Level 4 N.W."}},{"type":"Feature","id":74,"geometry":{"type":"Point","coordinates":[-82.342645075675421,29.645618097587974]},"properties":{"id":74,"JTYPE":"BLP","ASSETID":"BLP083B","NAME":"Garage 4 Level 4 N.E."}},{"type":"Feature","id":75,"geometry":{"type":"Point","coordinates":[-82.342625077823072,29.645008097592825]},"properties":{"id":75,"JTYPE":"BLP","ASSETID":"BLP083D","NAME":"Garage 4 Level4 4S.E."}},{"type":"Feature","id":77,"geometry":{"type":"Point","coordinates":[-82.353055076278437,29.648188067105675]},"properties":{"id":77,"JTYPE":"BLP","ASSETID":"BLP085","NAME":"N.E. of  Flavet Housing"}},{"type":"Feature","id":78,"geometry":{"type":"Point","coordinates":[-82.340835073715937,29.645978102427144]},"properties":{"id":78,"JTYPE":"BLP","ASSETID":"BLP086","NAME":"South of Broward Pool"}},{"type":"Feature","id":79,"geometry":{"type":"Point","coordinates":[-82.355285073558562,29.650108059663332]},"properties":{"id":79,"JTYPE":"BLP","ASSETID":"BLP087","NAME":"Percy Beard Track"}},{"type":"Feature","id":80,"geometry":{"type":"Point","coordinates":[-82.348025096894716,29.638628083459704]},"properties":{"id":80,"JTYPE":"BLP","ASSETID":"BLP089A","NAME":"Garage 3 Level 4 West"}},{"type":"Feature","id":81,"geometry":{"type":"Point","coordinates":[-82.347595097878283,29.638168084680483]},"properties":{"id":81,"JTYPE":"BLP","ASSETID":"BLP089B","NAME":"Garage 3 Level 4 South"}},{"type":"Feature","id":82,"geometry":{"type":"Point","coordinates":[-82.347805095961391,29.639238083616341]},"properties":{"id":82,"JTYPE":"BLP","ASSETID":"BLP089C","NAME":"Garage 3 Level 4 North"}},{"type":"Feature","id":83,"geometry":{"type":"Point","coordinates":[-82.350745086764462,29.643628074249065]},"properties":{"id":83,"JTYPE":"BLP","ASSETID":"BLP090A","NAME":"Garage 5 Level 1 N.E."}},{"type":"Feature","id":84,"geometry":{"type":"Point","coordinates":[-82.350755088104151,29.642908074257853]},"properties":{"id":84,"JTYPE":"BLP","ASSETID":"BLP090B","NAME":"Garage 5 Level 1 S.E."}},{"type":"Feature","id":85,"geometry":{"type":"Point","coordinates":[-82.351425088163353,29.642918072541956]},"properties":{"id":85,"JTYPE":"BLP","ASSETID":"BLP090C","NAME":"Garage 5 Level 1 S.W."}},{"type":"Feature","id":86,"geometry":{"type":"Point","coordinates":[-82.351405086591242,29.643638072989248]},"properties":{"id":86,"JTYPE":"BLP","ASSETID":"BLP090D","NAME":"Garage 5 Level 1 N.W."}},{"type":"Feature","id":87,"geometry":{"type":"Point","coordinates":[-82.343345076478172,29.645588094473684]},"properties":{"id":87,"JTYPE":"BLP","ASSETID":"BLP091A","NAME":"Garage 4 Level 1 N.W."}},{"type":"Feature","id":88,"geometry":{"type":"Point","coordinates":[-82.342695076139151,29.645578096851793]},"properties":{"id":88,"JTYPE":"BLP","ASSETID":"BLP091B","NAME":"Garage 4 Level 1N.E."}},{"type":"Feature","id":89,"geometry":{"type":"Point","coordinates":[-82.342675076956027,29.644968096847368]},"properties":{"id":89,"JTYPE":"BLP","ASSETID":"BLP091D","NAME":"Garage 4 Level 1 S.E."}},{"type":"Feature","id":90,"geometry":{"type":"Point","coordinates":[-82.338705070426727,29.646718108418977]},"properties":{"id":90,"JTYPE":"BLP","ASSETID":"BLP094","NAME":"Norman Hall West"}},{"type":"Feature","id":91,"geometry":{"type":"Point","coordinates":[-82.359765090400913,29.645058047956606]},"properties":{"id":91,"JTYPE":"BLP","ASSETID":"BLP096","NAME":"Village Dr. & Museum Rd."}},{"type":"Feature","id":92,"geometry":{"type":"Point","coordinates":[-82.341265064047363,29.649878100548275]},"properties":{"id":92,"JTYPE":"BLP","ASSETID":"BLP097","NAME":"East of Criser Hall on Union Rd."}},{"type":"Feature","id":93,"geometry":{"type":"Point","coordinates":[-82.348055096756198,29.638598083399295]},"properties":{"id":93,"JTYPE":"BLP","ASSETID":"BLP098A","NAME":"Garage 3 Level 2 West"}},{"type":"Feature","id":94,"geometry":{"type":"Point","coordinates":[-82.347625097474008,29.638148085114643]},"properties":{"id":94,"JTYPE":"BLP","ASSETID":"BLP098B","NAME":"Garage 3 Level 2 South"}},{"type":"Feature","id":95,"geometry":{"type":"Point","coordinates":[-82.347835096053331,29.639208084508361]},"properties":{"id":95,"JTYPE":"BLP","ASSETID":"BLP098C","NAME":"Garage 3 Level 2 North"}},{"type":"Feature","id":96,"geometry":{"type":"Point","coordinates":[-82.350725085983697,29.643638074602013]},"properties":{"id":96,"JTYPE":"BLP","ASSETID":"BLP099A","NAME":"Garage 5 Level 2 N.E."}},{"type":"Feature","id":97,"geometry":{"type":"Point","coordinates":[-82.350745088321887,29.642918075092947]},"properties":{"id":97,"JTYPE":"BLP","ASSETID":"BLP099B","NAME":"Garage 5 Level 2 S.E."}},{"type":"Feature","id":98,"geometry":{"type":"Point","coordinates":[-82.351405088626052,29.642928073016066]},"properties":{"id":98,"JTYPE":"BLP","ASSETID":"BLP099C","NAME":"Garage 5 Level 2 S.W."}},{"type":"Feature","id":99,"geometry":{"type":"Point","coordinates":[-82.351395086839872,29.64364807207021]},"properties":{"id":99,"JTYPE":"BLP","ASSETID":"BLP099D","NAME":"Garage 5 Level 2 N.W."}},{"type":"Feature","id":100,"geometry":{"type":"Point","coordinates":[-82.343325075918031,29.645608095025128]},"properties":{"id":100,"JTYPE":"BLP","ASSETID":"BLP100A","NAME":"Garage 4 Level 2 N.W."}},{"type":"Feature","id":101,"geometry":{"type":"Point","coordinates":[-82.343335078502065,29.644978095685648]},"properties":{"id":101,"JTYPE":"BLP","ASSETID":"BLP100C","NAME":"Garage 4 Level 2 S.W."}},{"type":"Feature","id":102,"geometry":{"type":"Point","coordinates":[-82.342655077418399,29.644988097313156]},"properties":{"id":102,"JTYPE":"BLP","ASSETID":"BLP100D","NAME":"Garage 4 Level 2 S.E."}},{"type":"Feature","id":103,"geometry":{"type":"Point","coordinates":[-82.341475086103827,29.641068102121594]},"properties":{"id":103,"JTYPE":"BLP","ASSETID":"BLP102A","NAME":"Garage 10 Level 1 N.E."}},{"type":"Feature","id":104,"geometry":{"type":"Point","coordinates":[-82.342135086973684,29.64073809894554]},"properties":{"id":104,"JTYPE":"BLP","ASSETID":"BLP102B","NAME":"Garage 10 Level 1 N.W."}},{"type":"Feature","id":105,"geometry":{"type":"Point","coordinates":[-82.341865088155288,29.640258100858997]},"properties":{"id":105,"JTYPE":"BLP","ASSETID":"BLP102C","NAME":"Garage 10 Level 1 S.W."}},{"type":"Feature","id":106,"geometry":{"type":"Point","coordinates":[-82.341465085751452,29.641088101756527]},"properties":{"id":106,"JTYPE":"BLP","ASSETID":"BLP103A","NAME":"Garage 10 Level 2  N.E."}},{"type":"Feature","id":107,"geometry":{"type":"Point","coordinates":[-82.342115088157456,29.640758100229942]},"properties":{"id":107,"JTYPE":"BLP","ASSETID":"BLP103B","NAME":"Garage 10 Level 2 N.W."}},{"type":"Feature","id":108,"geometry":{"type":"Point","coordinates":[-82.341855087766064,29.640268100110781]},"properties":{"id":108,"JTYPE":"BLP","ASSETID":"BLP103C","NAME":"Garage 10 Level 2 S.W."}},{"type":"Feature","id":109,"geometry":{"type":"Point","coordinates":[-82.342095087086619,29.640768099260171]},"properties":{"id":109,"JTYPE":"BLP","ASSETID":"BLP104B","NAME":"Garage 10 Level 3 N.W."}},{"type":"Feature","id":110,"geometry":{"type":"Point","coordinates":[-82.341835087974999,29.640288100433132]},"properties":{"id":110,"JTYPE":"BLP","ASSETID":"BLP104C","NAME":"Garage 10 Level 3 S.W."}},{"type":"Feature","id":111,"geometry":{"type":"Point","coordinates":[-82.341425085368698,29.641108101452957]},"properties":{"id":111,"JTYPE":"BLP","ASSETID":"BLP105A","NAME":"Garage 10 Level 4  N.E."}},{"type":"Feature","id":112,"geometry":{"type":"Point","coordinates":[-82.342085086630149,29.640778100333637]},"properties":{"id":112,"JTYPE":"BLP","ASSETID":"BLP105B","NAME":"Garage 10 Level 4 N.W."}},{"type":"Feature","id":113,"geometry":{"type":"Point","coordinates":[-82.341825088592671,29.640298100601683]},"properties":{"id":113,"JTYPE":"BLP","ASSETID":"BLP105C","NAME":"Garage 10 Level 4 S.W."}},{"type":"Feature","id":114,"geometry":{"type":"Point","coordinates":[-82.342145087382036,29.640728099672284]},"properties":{"id":114,"JTYPE":"BLP","ASSETID":"BLP106B","NAME":"Garage 10 Level G N.W."}},{"type":"Feature","id":115,"geometry":{"type":"Point","coordinates":[-82.346775092184146,29.640408087088158]},"properties":{"id":115,"JTYPE":"BLP","ASSETID":"BLP107","NAME":"Physical Therapy"}},{"type":"Feature","id":116,"geometry":{"type":"Point","coordinates":[-82.348735075282846,29.647848078287904]},"properties":{"id":116,"JTYPE":"BLP","ASSETID":"BLP108","NAME":"Rhines Hall N.E."}},{"type":"Feature","id":117,"geometry":{"type":"Point","coordinates":[-82.342565085200604,29.641778098133905]},"properties":{"id":117,"JTYPE":"BLP","ASSETID":"BLP109","NAME":"Brain East"}},{"type":"Feature","id":118,"geometry":{"type":"Point","coordinates":[-82.343855086418998,29.641728094737356]},"properties":{"id":118,"JTYPE":"BLP","ASSETID":"BLP110","NAME":"Harrell Hall East"}},{"type":"Feature","id":119,"geometry":{"type":"Point","coordinates":[-82.348185070768139,29.648968080037683]},"properties":{"id":119,"JTYPE":"BLP","ASSETID":"BLP111","NAME":"South Endzone"}},{"type":"Feature","id":120,"geometry":{"type":"Point","coordinates":[-82.366485106911398,29.640058030780448]},"properties":{"id":120,"JTYPE":"BLP","ASSETID":"BLP115","NAME":"SW Rec Softball Fields East"}},{"type":"Feature","id":121,"geometry":{"type":"Point","coordinates":[-82.369635114788352,29.638128022330491]},"properties":{"id":121,"JTYPE":"BLP","ASSETID":"BLP116","NAME":"S.W .Rec.Volleyball"}},{"type":"Feature","id":122,"geometry":{"type":"Point","coordinates":[-82.343665073160068,29.647358093434473]},"properties":{"id":122,"JTYPE":"BLP","ASSETID":"BLP117","NAME":"East BLDG 120"}},{"type":"Feature","id":123,"geometry":{"type":"Point","coordinates":[-82.359145112266091,29.635918052883493]},"properties":{"id":123,"JTYPE":"BLP","ASSETID":"BLP118","NAME":"USDA Parking Lot East"}},{"type":"Feature","id":124,"geometry":{"type":"Point","coordinates":[-82.357735076224714,29.649848051936246]},"properties":{"id":124,"JTYPE":"BLP","ASSETID":"BLP119","NAME":"Ring Tennis Pavilion"}},{"type":"Feature","id":125,"geometry":{"type":"Point","coordinates":[-82.343105058134,29.652948094483442]},"properties":{"id":125,"JTYPE":"BLP","ASSETID":"BLP120","NAME":"Bldg 105 East"}},{"type":"Feature","id":126,"geometry":{"type":"Point","coordinates":[-82.342955057291434,29.65299809443664]},"properties":{"id":126,"JTYPE":"BLP","ASSETID":"BLP121","NAME":"Bldg 105 West"}},{"type":"Feature","id":127,"geometry":{"type":"Point","coordinates":[-82.367315123501299,29.633718030490495]},"properties":{"id":127,"JTYPE":"BLP","ASSETID":"BLP122","NAME":"Nature Trail S.W.of Ento/Nemo"}},{"type":"Feature","id":128,"geometry":{"type":"Point","coordinates":[-82.365325101061131,29.642188033700961]},"properties":{"id":128,"JTYPE":"BLP","ASSETID":"BLP123","NAME":"North Lake Side 2000"}},{"type":"Feature","id":129,"geometry":{"type":"Point","coordinates":[-82.365125103295213,29.641298033378266]},"properties":{"id":129,"JTYPE":"BLP","ASSETID":"BLP124","NAME":"S.E. Lake Side 2000"}},{"type":"Feature","id":130,"geometry":{"type":"Point","coordinates":[-82.365845103681011,29.641528032246168]},"properties":{"id":130,"JTYPE":"BLP","ASSETID":"BLP125","NAME":"Middle Lake Side 2000"}},{"type":"Feature","id":131,"geometry":{"type":"Point","coordinates":[-82.367095104313151,29.641468028249136]},"properties":{"id":131,"JTYPE":"BLP","ASSETID":"BLP126","NAME":"West Lake Side 2000"}},{"type":"Feature","id":132,"geometry":{"type":"Point","coordinates":[-82.368105118518926,29.636488027391248]},"properties":{"id":132,"JTYPE":"BLP","ASSETID":"BLP127A","NAME":"Performing Arts Garage Level 1 NE"}},{"type":"Feature","id":133,"geometry":{"type":"Point","coordinates":[-82.368755118965552,29.636138025220841]},"properties":{"id":133,"JTYPE":"BLP","ASSETID":"BLP128B","NAME":"Performing Arts Garage Level 2 SW"}},{"type":"Feature","id":134,"geometry":{"type":"Point","coordinates":[-82.368085117627345,29.636508027106803]},"properties":{"id":134,"JTYPE":"BLP","ASSETID":"BLP128A","NAME":"Performing Arts Garage Level 2 NE"}},{"type":"Feature","id":135,"geometry":{"type":"Point","coordinates":[-82.368735119490239,29.636148025593126]},"properties":{"id":135,"JTYPE":"BLP","ASSETID":"BLP129B","NAME":"Performing Arts Garage Level 3 SW"}},{"type":"Feature","id":136,"geometry":{"type":"Point","coordinates":[-82.368065116997244,29.636518026457544]},"properties":{"id":136,"JTYPE":"BLP","ASSETID":"BLP129A","NAME":"Performing Arts Garage Level 3 NE"}},{"type":"Feature","id":137,"geometry":{"type":"Point","coordinates":[-82.3687251189492,29.636168025410107]},"properties":{"id":137,"JTYPE":"BLP","ASSETID":"BLP130B","NAME":"Performing Arts Garage Level 4 SW"}},{"type":"Feature","id":138,"geometry":{"type":"Point","coordinates":[-82.368055117548991,29.636528027682481]},"properties":{"id":138,"JTYPE":"BLP","ASSETID":"BLP130A","NAME":"Performing Arts Garage Level 4 SW"}},{"type":"Feature","id":139,"geometry":{"type":"Point","coordinates":[-82.34130507128323,29.647258100529054]},"properties":{"id":139,"JTYPE":"BLP","ASSETID":"BLP131","NAME":"North Broward Dining"}},{"type":"Feature","id":140,"geometry":{"type":"Point","coordinates":[-82.341615071771159,29.647088100065258]},"properties":{"id":140,"JTYPE":"BLP","ASSETID":"BLP132","NAME":"West Broward Dining"}},{"type":"Feature","id":141,"geometry":{"type":"Point","coordinates":[-82.341045071289457,29.647018101160516]},"properties":{"id":141,"JTYPE":"BLP","ASSETID":"BLP133","NAME":"East Broward Dining"}},{"type":"Feature","id":142,"geometry":{"type":"Point","coordinates":[-82.341365072769591,29.646518100683942]},"properties":{"id":142,"JTYPE":"BLP","ASSETID":"BLP134","NAME":"South Broward Dining"}},{"type":"Feature","id":143,"geometry":{"type":"Point","coordinates":[-82.37302512452122,29.635368013555187]},"properties":{"id":143,"JTYPE":"BLP","ASSETID":"BLP135","NAME":"South Hotel/Conf Center Parking Lot"}},{"type":"Feature","id":144,"geometry":{"type":"Point","coordinates":[-82.373765123435732,29.635968011414903]},"properties":{"id":144,"JTYPE":"BLP","ASSETID":"BLP136","NAME":"Middle Hotel/Conf Center Parking Lot"}},{"type":"Feature","id":145,"geometry":{"type":"Point","coordinates":[-82.373175120607883,29.636938012330557]},"properties":{"id":145,"JTYPE":"BLP","ASSETID":"BLP137","NAME":"North Hotel/Conf Center Parking Lot"}},{"type":"Feature","id":146,"geometry":{"type":"Point","coordinates":[-82.341655060126342,29.651918098907331]},"properties":{"id":146,"JTYPE":"BLP","ASSETID":"BLP138","NAME":"North Anderson Hall"}},{"type":"Feature","id":147,"geometry":{"type":"Point","coordinates":[-82.341715061390516,29.651478097658536]},"properties":{"id":147,"JTYPE":"BLP","ASSETID":"BLP139","NAME":"South Anderson Hall"}},{"type":"Feature","id":149,"geometry":{"type":"Point","coordinates":[-82.345935080528136,29.644758087984847]},"properties":{"id":149,"JTYPE":"BLP","ASSETID":"BLP141","NAME":"Frazier-Rogers North"}},{"type":"Feature","id":150,"geometry":{"type":"Point","coordinates":[-82.343925062754721,29.651448091440933]},"properties":{"id":150,"JTYPE":"BLP","ASSETID":"BLP142","NAME":"Flint Court Yard"}},{"type":"Feature","id":151,"geometry":{"type":"Point","coordinates":[-82.355865077190728,29.649108058387952]},"properties":{"id":151,"JTYPE":"BLP","ASSETID":"BLP144","NAME":"BasketBall Practice Facility SE"}},{"type":"Feature","id":152,"geometry":{"type":"Point","coordinates":[-82.333725083137082,29.639778124050711]},"properties":{"id":152,"JTYPE":"BLP","ASSETID":"BLP145","NAME":"P.K. Yonge East Parking Lot Athletic Fields"}},{"type":"Feature","id":153,"geometry":{"type":"Point","coordinates":[-82.34763507305361,29.648098082168342]},"properties":{"id":153,"JTYPE":"BLP","ASSETID":"BLP146","NAME":"Wiemer Hall NW"}},{"type":"Feature","id":154,"geometry":{"type":"Point","coordinates":[-82.347735073631057,29.647788082099218]},"properties":{"id":154,"JTYPE":"BLP","ASSETID":"BLP147","NAME":"Wiemer Hall SW"}},{"type":"Feature","id":155,"geometry":{"type":"Point","coordinates":[-82.342075057987557,29.652438097345261]},"properties":{"id":155,"JTYPE":"BLP","ASSETID":"BLP148","NAME":"Black Culture North"}},{"type":"Feature","id":156,"geometry":{"type":"Point","coordinates":[-82.349085062745004,29.652658076790022]},"properties":{"id":156,"JTYPE":"BLP","ASSETID":"BLP150","NAME":"North Emerson Hall (261)"}},{"type":"Feature","id":157,"geometry":{"type":"Point","coordinates":[-82.351685085806821,29.644148070972591]},"properties":{"id":157,"JTYPE":"BLP","ASSETID":"BLP151","NAME":"S.E. Hume Hall"}},{"type":"Feature","id":158,"geometry":{"type":"Point","coordinates":[-82.353815087527821,29.644418065587008]},"properties":{"id":158,"JTYPE":"BLP","ASSETID":"BLP152","NAME":"West Hume Hall"}},{"type":"Feature","id":159,"geometry":{"type":"Point","coordinates":[-82.349355068491207,29.650528076002537]},"properties":{"id":159,"JTYPE":"BLP","ASSETID":"BLP159","NAME":"Ben Hill Stadium Bldg 157 N.W."}},{"type":"Feature","id":160,"geometry":{"type":"Point","coordinates":[-82.350655090794092,29.641798075365227]},"properties":{"id":160,"JTYPE":"BLP","ASSETID":"BLP052","NAME":"East Gale Lemerand Drive Parking Lot"}},{"type":"Feature","id":161,"geometry":{"type":"Point","coordinates":[-82.344895076588713,29.646308089826231]},"properties":{"id":161,"JTYPE":"BLP","ASSETID":"BLP092","NAME":"McCarty Hall Vending"}},{"type":"Feature","id":162,"geometry":{"type":"Point","coordinates":[-82.34268507529903,29.645588096167536]},"properties":{"id":162,"JTYPE":"BLP","ASSETID":"BLP100B","NAME":"Garage 4 Level 2 N.E."}},{"type":"Feature","id":163,"geometry":{"type":"Point","coordinates":[-82.341445085562086,29.641098101606282]},"properties":{"id":163,"JTYPE":"BLP","ASSETID":"BLP104A","NAME":"Garage 10 Level 3  N.E."}},{"type":"Feature","id":164,"geometry":{"type":"Point","coordinates":[-82.350275086745128,29.643368075536358]},"properties":{"id":164,"JTYPE":"BLP","ASSETID":"BLP008","NAME":"Physics Bldg 92  SW"}},{"type":"Feature","id":165,"geometry":{"type":"Point","coordinates":[-82.342275096928304,29.637098100479641]},"properties":{"id":165,"JTYPE":"BLP","ASSETID":"BLP021","NAME":"Garage 6 Level 4"}},{"type":"Feature","id":166,"geometry":{"type":"Point","coordinates":[-82.349575103858527,29.63620807955639]},"properties":{"id":166,"JTYPE":"BLP","ASSETID":"BLP030C","NAME":"Archer Road Garage 9 Level 2 SW @ Elevator"}},{"type":"Feature","id":167,"geometry":{"type":"Point","coordinates":[-82.358265105979342,29.638418054387941]},"properties":{"id":167,"JTYPE":"BLP","ASSETID":"BLP034","NAME":"IFAS Lot E. of Wallace"}},{"type":"Feature","id":168,"geometry":{"type":"Point","coordinates":[-82.337245070847473,29.645858112442387]},"properties":{"id":168,"JTYPE":"BLP","ASSETID":"BLP045D","NAME":"Norman Garage Level 3 N.E."}},{"type":"Feature","id":169,"geometry":{"type":"Point","coordinates":[-82.351025070262139,29.650458071314656]},"properties":{"id":169,"JTYPE":"BLP","ASSETID":"BLP050","NAME":"ODome Garage Level 3"}},{"type":"Feature","id":170,"geometry":{"type":"Point","coordinates":[-82.350715075178996,29.648198072888022]},"properties":{"id":170,"JTYPE":"BLP","ASSETID":"BLP070","NAME":"Gator Corner Loading Dock"}},{"type":"Feature","id":171,"geometry":{"type":"Point","coordinates":[-82.34146506568716,29.649258099466877]},"properties":{"id":171,"JTYPE":"BLP","ASSETID":"BLP079","NAME":"Carlton & Walker Hall"}},{"type":"Feature","id":172,"geometry":{"type":"Point","coordinates":[-82.343305077342777,29.645008095598701]},"properties":{"id":172,"JTYPE":"BLP","ASSETID":"BLP083C","NAME":"Garage 4 Level 4 S.W."}},{"type":"Feature","id":173,"geometry":{"type":"Point","coordinates":[-82.347415096400212,29.638728085045184]},"properties":{"id":173,"JTYPE":"BLP","ASSETID":"BLP089D","NAME":" Garage 3 Level 4 East"}},{"type":"Feature","id":174,"geometry":{"type":"Point","coordinates":[-82.342915069612033,29.648238096275179]},"properties":{"id":174,"JTYPE":"BLP","ASSETID":"BLP095","NAME":"Music Bldg. 3rd Floor"}},{"type":"Feature","id":175,"geometry":{"type":"Point","coordinates":[-82.348175090569256,29.641278081966714]},"properties":{"id":175,"JTYPE":"BLP","ASSETID":"BLP101","NAME":"Partical Science"}},{"type":"Feature","id":176,"geometry":{"type":"Point","coordinates":[-82.341495086303709,29.641058101365257]},"properties":{"id":176,"JTYPE":"BLP","ASSETID":"BLP106A","NAME":"Garage 10 Level G  N.E"}},{"type":"Feature","id":177,"geometry":{"type":"Point","coordinates":[-82.347855076858906,29.646808081821252]},"properties":{"id":177,"JTYPE":"BLP","ASSETID":"BLP001","NAME":"Reitz Union North"}},{"type":"Feature","id":178,"geometry":{"type":"Point","coordinates":[-82.335455074970994,29.643708117433459]},"properties":{"id":178,"JTYPE":"BLP","ASSETID":"BLP002","NAME":"Bog Parking Lot SW 9th Ave & SW 11th St"}},{"type":"Feature","id":179,"geometry":{"type":"Point","coordinates":[-82.350755097768015,29.639218075753298]},"properties":{"id":179,"JTYPE":"BLP","ASSETID":"BLP003","NAME":"Pony Field"}},{"type":"Feature","id":181,"geometry":{"type":"Point","coordinates":[-82.348975085200664,29.643538079180736]},"properties":{"id":181,"JTYPE":"BLP","ASSETID":"BLP005","NAME":"Physics Bldg 92  SE"}},{"type":"Feature","id":182,"geometry":{"type":"Point","coordinates":[-82.349315083722871,29.644328078216095]},"properties":{"id":182,"JTYPE":"BLP","ASSETID":"BLP006","NAME":"Physics Bldg 92  NE"}},{"type":"Feature","id":183,"geometry":{"type":"Point","coordinates":[-82.349805083999385,29.64450807735431]},"properties":{"id":183,"JTYPE":"BLP","ASSETID":"BLP007","NAME":"Physics Bldg 92  N"}},{"type":"Feature","id":184,"geometry":{"type":"Point","coordinates":[-82.34952506245331,29.65280807583159]},"properties":{"id":184,"JTYPE":"BLP","ASSETID":"BLP009","NAME":"Alumni Affairs"}},{"type":"Feature","id":185,"geometry":{"type":"Point","coordinates":[-82.346695087122001,29.64234808562728]},"properties":{"id":185,"JTYPE":"BLP","ASSETID":"BLP010","NAME":"Engineering Bldg 33 East"}},{"type":"Feature","id":186,"geometry":{"type":"Point","coordinates":[-82.347555088661892,29.641868084450842]},"properties":{"id":186,"JTYPE":"BLP","ASSETID":"BLP011","NAME":"Black Hall Bldg 724 East"}},{"type":"Feature","id":187,"geometry":{"type":"Point","coordinates":[-82.347585087145916,29.642388083914682]},"properties":{"id":187,"JTYPE":"BLP","ASSETID":"BLP012","NAME":"Engineering Bldg 33 West"}},{"type":"Feature","id":188,"geometry":{"type":"Point","coordinates":[-82.347235087141726,29.642688085085606]},"properties":{"id":188,"JTYPE":"BLP","ASSETID":"BLP013","NAME":"Engineering Bldg 33 North"}},{"type":"Feature","id":189,"geometry":{"type":"Point","coordinates":[-82.351085119164878,29.630998076984152]},"properties":{"id":189,"JTYPE":"BLP","ASSETID":"BLP014","NAME":"Animal/Dairy Science Park Lot"}},{"type":"Feature","id":190,"geometry":{"type":"Point","coordinates":[-82.362635104948652,29.640038041429815]},"properties":{"id":190,"JTYPE":"BLP","ASSETID":"BLP015","NAME":"Microcellbiology East Bldg 981"}},{"type":"Feature","id":191,"geometry":{"type":"Point","coordinates":[-82.36368510558998,29.640078038532792]},"properties":{"id":191,"JTYPE":"BLP","ASSETID":"BLP016","NAME":"Microcellbiology NW Bldg 981"}},{"type":"Feature","id":192,"geometry":{"type":"Point","coordinates":[-82.365385110080823,29.638758033586701]},"properties":{"id":192,"JTYPE":"BLP","ASSETID":"BLP017","NAME":"Women Softball Field Batting Cage"}},{"type":"Feature","id":193,"geometry":{"type":"Point","coordinates":[-82.365395111223307,29.63821803369628]},"properties":{"id":193,"JTYPE":"BLP","ASSETID":"BLP018","NAME":"Women Softball Front Gate"}},{"type":"Feature","id":194,"geometry":{"type":"Point","coordinates":[-82.34224509679072,29.637128100130063]},"properties":{"id":194,"JTYPE":"BLP","ASSETID":"BLP020","NAME":"Garage 6 Level 5"}},{"type":"Feature","id":195,"geometry":{"type":"Point","coordinates":[-82.342305096276505,29.637078100315865]},"properties":{"id":195,"JTYPE":"BLP","ASSETID":"BLP022","NAME":"Garage 6 Level 3"}},{"type":"Feature","id":196,"geometry":{"type":"Point","coordinates":[-82.34233509640049,29.637048099749581]},"properties":{"id":196,"JTYPE":"BLP","ASSETID":"BLP023","NAME":"Garage 6 Level 2"}},{"type":"Feature","id":197,"geometry":{"type":"Point","coordinates":[-82.342445096749742,29.637058098906607]},"properties":{"id":197,"JTYPE":"BLP","ASSETID":"BLP024","NAME":"Garage 6 Level 1"}},{"type":"Feature","id":198,"geometry":{"type":"Point","coordinates":[-82.34591506703525,29.650418086157273]},"properties":{"id":198,"JTYPE":"BLP","ASSETID":"BLP028","NAME":"Farrior Hall NW"}},{"type":"Feature","id":199,"geometry":{"type":"Point","coordinates":[-82.348665102171623,29.636828082820958]},"properties":{"id":199,"JTYPE":"BLP","ASSETID":"BLP029A","NAME":"Archer Road Garage 9 Level 1 NE"}},{"type":"Feature","id":200,"geometry":{"type":"Point","coordinates":[-82.349555104012609,29.636108079872116]},"properties":{"id":200,"JTYPE":"BLP","ASSETID":"BLP029B","NAME":"Archer Road Garage 9 Level 1 SW @ Elevator"}},{"type":"Feature","id":201,"geometry":{"type":"Point","coordinates":[-82.349615103544252,29.636218079502623]},"properties":{"id":201,"JTYPE":"BLP","ASSETID":"BLP029C","NAME":"Archer Road Garage 9 Level 1 Bus Stop"}},{"type":"Feature","id":202,"geometry":{"type":"Point","coordinates":[-82.348415103337231,29.636198082210786]},"properties":{"id":202,"JTYPE":"BLP","ASSETID":"BLP029D","NAME":"Archer Road Garage 9 Level 1 SE"}},{"type":"Feature","id":203,"geometry":{"type":"Point","coordinates":[-82.348645101534487,29.636838081935572]},"properties":{"id":203,"JTYPE":"BLP","ASSETID":"BLP030A","NAME":"Archer Road Garage 9 Level 2 NE"}},{"type":"Feature","id":204,"geometry":{"type":"Point","coordinates":[-82.349535103544468,29.636128079518546]},"properties":{"id":204,"JTYPE":"BLP","ASSETID":"BLP030B","NAME":"Archer Road Garage 9 Level 2 NW @ Elevator"}},{"type":"Feature","id":205,"geometry":{"type":"Point","coordinates":[-82.348395103615672,29.636218083503561]},"properties":{"id":205,"JTYPE":"BLP","ASSETID":"BLP030D","NAME":"Archer Road Garage 9 Level 2 SE"}},{"type":"Feature","id":206,"geometry":{"type":"Point","coordinates":[-82.348625101769528,29.636858081459675]},"properties":{"id":206,"JTYPE":"BLP","ASSETID":"BLP031A","NAME":"Archer Road Garage 9 Level 3 NE"}},{"type":"Feature","id":207,"geometry":{"type":"Point","coordinates":[-82.349745071349858,29.649578075817544]},"properties":{"id":207,"JTYPE":"BLP","ASSETID":"BLP158","NAME":"Ben Hill Stadium Bldg 157 West"}},{"type":"Feature","id":208,"geometry":{"type":"Point","coordinates":[-82.373045118369092,29.637878012403991]},"properties":{"id":208,"JTYPE":"BLP","ASSETID":"BLP166","NAME":"East Orthopedics Bldg 1178"}},{"type":"Feature","id":209,"geometry":{"type":"Point","coordinates":[-82.351915101747309,29.637898072615744]},"properties":{"id":209,"JTYPE":"BLP","ASSETID":"BLP172","NAME":"West Genetics Building 1376"}},{"type":"Feature","id":210,"geometry":{"type":"Point","coordinates":[-82.351605099844349,29.638778073240708]},"properties":{"id":210,"JTYPE":"BLP","ASSETID":"BLP173","NAME":"North Genetics Building 1376"}},{"type":"Feature","id":211,"geometry":{"type":"Point","coordinates":[-82.35081510148089,29.637748075658934]},"properties":{"id":211,"JTYPE":"BLP","ASSETID":"BLP174","NAME":"East Genetics Building 1376"}},{"type":"Feature","id":212,"geometry":{"type":"Point","coordinates":[-82.351295114106719,29.633048075864611]},"properties":{"id":212,"JTYPE":"BLP","ASSETID":"BLP179","NAME":"South Deriso Hall Building 165"}},{"type":"Feature","id":213,"geometry":{"type":"Point","coordinates":[-82.35315507341852,29.649828065464011]},"properties":{"id":213,"JTYPE":"BLP","ASSETID":"BLP180","NAME":"Perry Field Consessions Area"}},{"type":"Feature","id":214,"geometry":{"type":"Point","coordinates":[-82.344905068636862,29.649258090108006]},"properties":{"id":214,"JTYPE":"BLP","ASSETID":"BLP195","NAME":"Pugh Hall"}},{"type":"Feature","id":215,"geometry":{"type":"Point","coordinates":[-82.346445085376203,29.643108087467485]},"properties":{"id":215,"JTYPE":"BLP","ASSETID":"BLP196","NAME":"Nanoscience"}},{"type":"Feature","id":216,"geometry":{"type":"Point","coordinates":[-82.345985089372789,29.64081808869863]},"properties":{"id":216,"JTYPE":"BLP","ASSETID":"BLP201","NAME":"BioMedical Services Building"}},{"type":"Feature","id":217,"geometry":{"type":"Point","coordinates":[-82.349275092395331,29.640908079059045]},"properties":{"id":217,"JTYPE":"BLP","ASSETID":"BLP203A","NAME":"SW Parking Garage (TAPS) Bldg 254  Level 1 NE"}},{"type":"Feature","id":218,"geometry":{"type":"Point","coordinates":[-82.350095094149253,29.640468077052752]},"properties":{"id":218,"JTYPE":"BLP","ASSETID":"BLP203B","NAME":"SW Parking Garage (TAPS) Bldg 254  Level 2 NW"}},{"type":"Feature","id":219,"geometry":{"type":"Point","coordinates":[-82.349135092989343,29.6404180793315]},"properties":{"id":219,"JTYPE":"BLP","ASSETID":"BLP202C","NAME":"SW Parking Garage (TAPS) Bldg 254  Level 1 SE"}},{"type":"Feature","id":220,"geometry":{"type":"Point","coordinates":[-82.350035094719203,29.640228077053763]},"properties":{"id":220,"JTYPE":"BLP","ASSETID":"BLP202D","NAME":"SW Parking Garage (TAPS) Bldg 254  Level 1 SW"}},{"type":"Feature","id":221,"geometry":{"type":"Point","coordinates":[-82.349275092395331,29.640908079059045]},"properties":{"id":221,"JTYPE":"BLP","ASSETID":"BLP203A","NAME":"SW Parking Garage (TAPS) Bldg 254  Level 2 NE"}},{"type":"Feature","id":222,"geometry":{"type":"Point","coordinates":[-82.350095094149253,29.640468077052752]},"properties":{"id":222,"JTYPE":"BLP","ASSETID":"BLP203B","NAME":"SW Parking Garage (TAPS) Bldg 254  Level 2 NW"}},{"type":"Feature","id":223,"geometry":{"type":"Point","coordinates":[-82.349145093591176,29.640418079934793]},"properties":{"id":223,"JTYPE":"BLP","ASSETID":"BLP203C","NAME":"SW Parking Garage (TAPS) Bldg 254  Level 2 SE"}},{"type":"Feature","id":224,"geometry":{"type":"Point","coordinates":[-82.350025094120667,29.640238076914471]},"properties":{"id":224,"JTYPE":"BLP","ASSETID":"BLP203D","NAME":"SW Parking Garage (TAPS) Bldg 254  Level 2 SW"}},{"type":"Feature","id":225,"geometry":{"type":"Point","coordinates":[-82.349285092103912,29.640898079238706]},"properties":{"id":225,"JTYPE":"BLP","ASSETID":"BLP204A","NAME":"SW Parking Garage (TAPS) Bldg 254  Level 3 NE"}},{"type":"Feature","id":226,"geometry":{"type":"Point","coordinates":[-82.35008509456523,29.640478076935125]},"properties":{"id":226,"JTYPE":"BLP","ASSETID":"BLP204B","NAME":"SW Parking Garage (TAPS) Bldg 254  Level 3 NW"}},{"type":"Feature","id":227,"geometry":{"type":"Point","coordinates":[-82.349155093180016,29.640418079618321]},"properties":{"id":227,"JTYPE":"BLP","ASSETID":"BLP204C","NAME":"SW Parking Garage (TAPS) Bldg 254  Level 3 SE"}},{"type":"Feature","id":228,"geometry":{"type":"Point","coordinates":[-82.350025095137468,29.640248077327357]},"properties":{"id":228,"JTYPE":"BLP","ASSETID":"BLP204D","NAME":"SW Parking Garage (TAPS) Bldg 254  Level 3 SW"}},{"type":"Feature","id":229,"geometry":{"type":"Point","coordinates":[-82.349285092193938,29.640888078842796]},"properties":{"id":229,"JTYPE":"BLP","ASSETID":"BLP205A","NAME":"SW Parking Garage (TAPS) Bldg 254  Level 4 NE"}},{"type":"Feature","id":230,"geometry":{"type":"Point","coordinates":[-82.3500750939466,29.640488076799748]},"properties":{"id":230,"JTYPE":"BLP","ASSETID":"BLP205B","NAME":"SW Parking Garage (TAPS) Bldg 254  Level 4 NW"}},{"type":"Feature","id":231,"geometry":{"type":"Point","coordinates":[-82.349165093699256,29.640428079713931]},"properties":{"id":231,"JTYPE":"BLP","ASSETID":"BLP205C","NAME":"SW Parking Garage (TAPS) Bldg 254  Level 4 SE"}},{"type":"Feature","id":232,"geometry":{"type":"Point","coordinates":[-82.350015094533177,29.640248077693471]},"properties":{"id":232,"JTYPE":"BLP","ASSETID":"BLP205D","NAME":"SW Parking Garage (TAPS) Bldg 254  Level 4 SW"}},{"type":"Feature","id":233,"geometry":{"type":"Point","coordinates":[-82.349295091810475,29.640888079417579]},"properties":{"id":233,"JTYPE":"BLP","ASSETID":"BLP206A","NAME":"SW Parking Garage (TAPS) Bldg 254  Level 5 NE"}},{"type":"Feature","id":234,"geometry":{"type":"Point","coordinates":[-82.3500750939466,29.640488076799748]},"properties":{"id":234,"JTYPE":"BLP","ASSETID":"BLP205B","NAME":"SW Parking Garage (TAPS) Bldg 254  Level 4 NW"}},{"type":"Feature","id":235,"geometry":{"type":"Point","coordinates":[-82.349165093616662,29.640438079207797]},"properties":{"id":235,"JTYPE":"BLP","ASSETID":"BLP206C","NAME":"SW Parking Garage (TAPS) Bldg 254  Level 5 SE"}},{"type":"Feature","id":236,"geometry":{"type":"Point","coordinates":[-82.350015094516436,29.640258078089282]},"properties":{"id":236,"JTYPE":"BLP","ASSETID":"BLP206D","NAME":"SW Parking Garage (TAPS) Bldg 254  Level 5 SW"}},{"type":"Feature","id":237,"geometry":{"type":"Point","coordinates":[-82.349295091899506,29.640878079021689]},"properties":{"id":237,"JTYPE":"BLP","ASSETID":"BLP207A","NAME":"SW Parking Garage (TAPS) Bldg 254  Level 6  NE"}},{"type":"Feature","id":238,"geometry":{"type":"Point","coordinates":[-82.350065093325981,29.640498076663572]},"properties":{"id":238,"JTYPE":"BLP","ASSETID":"BLP207B","NAME":"SW Parking Garage (TAPS) Bldg 254  Level 6 NW"}},{"type":"Feature","id":239,"geometry":{"type":"Point","coordinates":[-82.349175093187966,29.640438079791767]},"properties":{"id":239,"JTYPE":"BLP","ASSETID":"BLP207C","NAME":"SW Parking Garage (TAPS) Bldg 254  Level 6 SE"}},{"type":"Feature","id":240,"geometry":{"type":"Point","coordinates":[-82.350005093912884,29.640268077948537]},"properties":{"id":240,"JTYPE":"BLP","ASSETID":"BLP207D","NAME":"SW Parking Garage (TAPS) Bldg 254  Level 6 SW"}},{"type":"Feature","id":241,"geometry":{"type":"Point","coordinates":[-82.369425103709276,29.642548022012416]},"properties":{"id":241,"JTYPE":"BLP","ASSETID":"BLP235","NAME":"Wellness Center Bldg 81"}},{"type":"Feature","id":242,"geometry":{"type":"Point","coordinates":[-82.363855097097911,29.643208037133327]},"properties":{"id":242,"JTYPE":"BLP","ASSETID":"BLP035","NAME":"Bat House Parking Lot"}},{"type":"Feature","id":243,"geometry":{"type":"Point","coordinates":[-82.333985055224886,29.651518121242621]},"properties":{"id":243,"JTYPE":"BLP","ASSETID":"BLP062","NAME":"HR Bldg 3381 Parking Lot 903 W Univ Ave"}},{"type":"Feature","id":244,"geometry":{"type":"Point","coordinates":[-82.335285082755135,29.640558119522687]},"properties":{"id":244,"JTYPE":"BLP","ASSETID":"BLP078","NAME":"PK Yonge Auditorium"}},{"type":"Feature","id":245,"geometry":{"type":"Point","coordinates":[-82.350935111325313,29.633888076317231]},"properties":{"id":245,"JTYPE":"BLP","ASSETID":"BLP239","NAME":"Vet Med Small Animal Bldg 75 West"}},{"type":"Feature","id":246,"geometry":{"type":"Point","coordinates":[-82.350475108761671,29.634328077685655]},"properties":{"id":246,"JTYPE":"BLP","ASSETID":"BLP156","NAME":"Vet Med Small Animal Bldg 75 NE"}},{"type":"Feature","id":247,"geometry":{"type":"Point","coordinates":[-82.351805111298248,29.633988073727057]},"properties":{"id":247,"JTYPE":"BLP","ASSETID":"BLP240","NAME":"Deriso Hall Building 165 Parking Lot NW"}},{"type":"Feature","id":248,"geometry":{"type":"Point","coordinates":[-82.351315111515291,29.634038075037733]},"properties":{"id":248,"JTYPE":"BLP","ASSETID":"BLP178","NAME":"Deriso Hall Building 165 Parking Lot NE"}},{"type":"Feature","id":249,"geometry":{"type":"Point","coordinates":[-82.348355108199002,29.634258083161392]},"properties":{"id":249,"JTYPE":"BLP","ASSETID":"BLP198","NAME":"Vet Med Admin Bldg 1017 East"}},{"type":"Feature","id":250,"geometry":{"type":"Point","coordinates":[-82.368765119317615,29.636128024861176]},"properties":{"id":250,"JTYPE":"BLP","ASSETID":"BLP127B","NAME":"Performing Arts Garage Level1 SW"}},{"type":"Feature","id":251,"geometry":{"type":"Point","coordinates":[-82.369825111898834,29.63949802095453]},"properties":{"id":251,"JTYPE":"BLP","ASSETID":"BLP162","NAME":"Maguire Village Parking East"}},{"type":"Feature","id":252,"geometry":{"type":"Point","coordinates":[-82.343355074317586,29.646598095126691]},"properties":{"id":252,"JTYPE":"BLP","ASSETID":"BLP153","NAME":"SW Rinker Hall"}},{"type":"Feature","id":253,"geometry":{"type":"Point","coordinates":[-82.342745071489574,29.647328096069074]},"properties":{"id":253,"JTYPE":"BLP","ASSETID":"BLP154","NAME":"NE Rinker Hall"}},{"type":"Feature","id":254,"geometry":{"type":"Point","coordinates":[-82.34459506942666,29.64865809064765]},"properties":{"id":254,"JTYPE":"BLP","ASSETID":"BLP157","NAME":"NW CSE Bldg 42"}},{"type":"Feature","id":255,"geometry":{"type":"Point","coordinates":[-82.339885059744631,29.651018103675273]},"properties":{"id":255,"JTYPE":"BLP","ASSETID":"BLP160","NAME":"Gerson Hall N.E."}},{"type":"Feature","id":256,"geometry":{"type":"Point","coordinates":[-82.340575062344158,29.650658101710793]},"properties":{"id":256,"JTYPE":"BLP","ASSETID":"BLP161","NAME":"Gerson Hall  West"}},{"type":"Feature","id":257,"geometry":{"type":"Point","coordinates":[-82.361505120616698,29.633248047193828]},"properties":{"id":257,"JTYPE":"BLP","ASSETID":"BLP155","NAME":"Mehrhof Hall"}},{"type":"Feature","id":258,"geometry":{"type":"Point","coordinates":[-82.348295081699817,29.645148080927285]},"properties":{"id":258,"JTYPE":"BLP","ASSETID":"BLP163A","NAME":"Reitz Union Garage Parking Level South"}},{"type":"Feature","id":259,"geometry":{"type":"Point","coordinates":[-82.348255080903527,29.645178081309751]},"properties":{"id":259,"JTYPE":"BLP","ASSETID":"BLP164A","NAME":"Reitz Union Garage Plaza Level South"}},{"type":"Feature","id":260,"geometry":{"type":"Point","coordinates":[-82.348205081244515,29.645198081545178]},"properties":{"id":260,"JTYPE":"BLP","ASSETID":"BLP165A","NAME":"Reitz Union Garage Ground Level South"}},{"type":"Feature","id":261,"geometry":{"type":"Point","coordinates":[-82.347625081103402,29.645178082847849]},"properties":{"id":261,"JTYPE":"BLP","ASSETID":"BLP163B","NAME":"Reitz Union Garage Parkng Level SE"}},{"type":"Feature","id":262,"geometry":{"type":"Point","coordinates":[-82.347605079956864,29.645178082326595]},"properties":{"id":262,"JTYPE":"BLP","ASSETID":"BLP164B","NAME":"Reitz Union Garage Plaza Level SE"}},{"type":"Feature","id":263,"geometry":{"type":"Point","coordinates":[-82.347895078887433,29.645588082684998]},"properties":{"id":263,"JTYPE":"BLP","ASSETID":"BLP163C","NAME":"Reitz Union Garage Parkng Level  North"}},{"type":"Feature","id":264,"geometry":{"type":"Point","coordinates":[-82.347875079723735,29.64558808223914]},"properties":{"id":264,"JTYPE":"BLP","ASSETID":"BLP164C","NAME":"Reitz Union Garage Plaza Level North"}},{"type":"Feature","id":265,"geometry":{"type":"Point","coordinates":[-82.347845079184935,29.645598082386378]},"properties":{"id":265,"JTYPE":"BLP","ASSETID":"BLP165C","NAME":"Reitz Union Garage Ground Level North"}},{"type":"Feature","id":266,"geometry":{"type":"Point","coordinates":[-82.374595119648674,29.63785800793951]},"properties":{"id":266,"JTYPE":"BLP","ASSETID":"BLP167","NAME":"West Orthopedics Bldg 1178"}},{"type":"Feature","id":267,"geometry":{"type":"Point","coordinates":[-82.358295076627726,29.64957805031554]},"properties":{"id":267,"JTYPE":"BLP","ASSETID":"BLP169","NAME":"East Holland Law Bldg 757"}},{"type":"Feature","id":268,"geometry":{"type":"Point","coordinates":[-82.359815076452833,29.650238046960986]},"properties":{"id":268,"JTYPE":"BLP","ASSETID":"BLP170","NAME":"NW Holland Law Bldg 757"}},{"type":"Feature","id":269,"geometry":{"type":"Point","coordinates":[-82.359975079633898,29.649348046208221]},"properties":{"id":269,"JTYPE":"BLP","ASSETID":"BLP171","NAME":"SW Holland Law Bldg 757"}},{"type":"Feature","id":270,"geometry":{"type":"Point","coordinates":[-82.342975061592142,29.651488095359856]},"properties":{"id":270,"JTYPE":"BLP","ASSETID":"BLP175","NAME":"Library West Study Room"}},{"type":"Feature","id":271,"geometry":{"type":"Point","coordinates":[-82.299054984148228,29.672088221899823]},"properties":{"id":271,"JTYPE":"BLP","ASSETID":"BLP176","NAME":"East Campus Building 1604 West"}},{"type":"Feature","id":272,"geometry":{"type":"Point","coordinates":[-82.300834985454571,29.671948216144763]},"properties":{"id":272,"JTYPE":"BLP","ASSETID":"BLP177","NAME":"East Campus Powell Structure Lab"}},{"type":"Feature","id":273,"geometry":{"type":"Point","coordinates":[-82.367015114366467,29.637358029572415]},"properties":{"id":273,"JTYPE":"BLP","ASSETID":"BLP208","NAME":"Lacrosse Field North"}},{"type":"Feature","id":274,"geometry":{"type":"Point","coordinates":[-82.361185087106961,29.646308044189954]},"properties":{"id":274,"JTYPE":"BLP","ASSETID":"BLP026","NAME":"Corry Village West of Bldg 287"}},{"type":"Feature","id":275,"geometry":{"type":"Point","coordinates":[-82.299784984121374,29.672168220213308]},"properties":{"id":275,"JTYPE":"BLP","ASSETID":"BLP237","NAME":"East Campus West Building 1628"}},{"type":"Feature","id":276,"geometry":{"type":"Point","coordinates":[-82.300014985167451,29.671748218007327]},"properties":{"id":276,"JTYPE":"BLP","ASSETID":"BLP236","NAME":"East Campus South Building 1628"}},{"type":"Feature","id":277,"geometry":{"type":"Point","coordinates":[-82.299174983156277,29.672478220979681]},"properties":{"id":277,"JTYPE":"BLP","ASSETID":"BLP238","NAME":"East Campus North Building 1628"}},{"type":"Feature","id":278,"geometry":{"type":"Point","coordinates":[-82.298564982663578,29.672538223125557]},"properties":{"id":278,"JTYPE":"BLP","ASSETID":"BLP242","NAME":"East Campus North Parking Lot East"}},{"type":"Feature","id":279,"geometry":{"type":"Point","coordinates":[-82.299624981877656,29.673338219914889]},"properties":{"id":279,"JTYPE":"BLP","ASSETID":"BLP241","NAME":"East Campus North Parking Lot West"}},{"type":"Feature","id":280,"geometry":{"type":"Point","coordinates":[-82.34858507135155,29.648938079068053]},"properties":{"id":280,"JTYPE":"BLP","ASSETID":"BLP181","NAME":"Ben Hill South Endzone Upper Section 55"}},{"type":"Feature","id":281,"geometry":{"type":"Point","coordinates":[-82.349245071803168,29.649128077282867]},"properties":{"id":281,"JTYPE":"BLP","ASSETID":"BLP182","NAME":"Ben Hill Womens Restroom Gate 18"}},{"type":"Feature","id":282,"geometry":{"type":"Point","coordinates":[-82.349185069745744,29.650068077849504]},"properties":{"id":282,"JTYPE":"BLP","ASSETID":"BLP183","NAME":"Ben Hill Westside Upper Level Section 11"}},{"type":"Feature","id":283,"geometry":{"type":"Point","coordinates":[-82.348485067312126,29.650768079048788]},"properties":{"id":283,"JTYPE":"BLP","ASSETID":"BLP184","NAME":"Ben Hill North Endzone Upper Level Section 324"}},{"type":"Feature","id":284,"geometry":{"type":"Point","coordinates":[-82.34854506781231,29.650578078825131]},"properties":{"id":284,"JTYPE":"BLP","ASSETID":"BLP185","NAME":"Ben Hill North Endzone Lower Level First Aid Station"}},{"type":"Feature","id":285,"geometry":{"type":"Point","coordinates":[-82.349155094630021,29.639718079787006]},"properties":{"id":285,"JTYPE":"BLP","ASSETID":"BLP247","NAME":"Center for Aging/Bldg 1375 SE Rd"}},{"type":"Feature","id":286,"geometry":{"type":"Point","coordinates":[-82.337705126465295,29.623348115776576]},"properties":{"id":286,"JTYPE":"BLP","ASSETID":"BLP192","NAME":"Tanglewood Apartment Laundry"}},{"type":"Feature","id":287,"geometry":{"type":"Point","coordinates":[-82.342185086064987,29.641038098796916]},"properties":{"id":287,"JTYPE":"BLP","ASSETID":"BLP197","NAME":"Garage 1 Level 5"}},{"type":"Feature","id":288,"geometry":{"type":"Point","coordinates":[-82.375735118171733,29.638828004839937]},"properties":{"id":288,"JTYPE":"BLP","ASSETID":"BLP194","NAME":"Shands Florida Surgery Center SW"}},{"type":"Feature","id":289,"geometry":{"type":"Point","coordinates":[-82.350095094149253,29.640468077052752]},"properties":{"id":289,"JTYPE":"BLP","ASSETID":"BLP202B","NAME":" "}},{"type":"Feature","id":290,"geometry":{"type":"Point","coordinates":[-82.350045094132298,29.640498077435169]},"properties":{"id":290,"JTYPE":"BLP","ASSETID":"BLP206B","NAME":"SW Parking Garage (TAPS) Bldg 254  Level 5 NW"}},{"type":"Feature","id":291,"geometry":{"type":"Point","coordinates":[-82.341035093203857,29.638168103664871]},"properties":{"id":291,"JTYPE":"BLP","ASSETID":"BLP213","NAME":" Shands North Rush Lake Pond West CoGeneration Plant"}},{"type":"Feature","id":292,"geometry":{"type":"Point","coordinates":[-82.339525090535318,29.638708107420062]},"properties":{"id":292,"JTYPE":"BLP","ASSETID":"BLP961A","NAME":"Shands Parking Garage P12 Level 2 North"}},{"type":"Feature","id":293,"geometry":{"type":"Point","coordinates":[-82.360675108514883,29.637948047448702]},"properties":{"id":293,"JTYPE":"BLP","ASSETID":"BLP189","NAME":"Fifield Hall SE"}},{"type":"Feature","id":294,"geometry":{"type":"Point","coordinates":[-82.361715108791898,29.637968044058645]},"properties":{"id":294,"JTYPE":"BLP","ASSETID":"BLP188","NAME":"Fifield Hall SW"}},{"type":"Feature","id":295,"geometry":{"type":"Point","coordinates":[-82.340555081826736,29.642538103175227]},"properties":{"id":295,"JTYPE":"BLP","ASSETID":"BLP190","NAME":"Diamond Village Bldg 307"}},{"type":"Feature","id":296,"geometry":{"type":"Point","coordinates":[-82.346435094819896,29.639118087897561]},"properties":{"id":296,"JTYPE":"BLP","ASSETID":"BLP243","NAME":"Garage 2 Ground @ Elevator"}},{"type":"Feature","id":297,"geometry":{"type":"Point","coordinates":[-82.339585091799748,29.637998106837099]},"properties":{"id":297,"JTYPE":"BLP","ASSETID":"BLP965B","NAME":"Shands Parking Garage P12 Level 5 South"}},{"type":"Feature","id":298,"geometry":{"type":"Point","coordinates":[-82.339605090061141,29.638708108125495]},"properties":{"id":298,"JTYPE":"BLP","ASSETID":"BLP966A","NAME":"Shands Parking Garage P12 Level 7 North"}},{"type":"Feature","id":299,"geometry":{"type":"Point","coordinates":[-82.339535089952449,29.638708107840671]},"properties":{"id":299,"JTYPE":"BLP","ASSETID":"BLP962A","NAME":"Shands Parking Garage P12 Level 3 North"}},{"type":"Feature","id":300,"geometry":{"type":"Point","coordinates":[-82.339585090194376,29.638708107277214]},"properties":{"id":300,"JTYPE":"BLP","ASSETID":"BLP965A","NAME":"Shands Parking Garage P12 Level 6 North"}},{"type":"Feature","id":301,"geometry":{"type":"Point","coordinates":[-82.339585091799748,29.637998106837099]},"properties":{"id":301,"JTYPE":"BLP","ASSETID":"BLP233B","NAME":"Shands Parking Garage P12 Level 6 South"}},{"type":"Feature","id":302,"geometry":{"type":"Point","coordinates":[-82.33960509152395,29.63799810768538]},"properties":{"id":302,"JTYPE":"BLP","ASSETID":"BLP966B","NAME":"Shands Parking Garage P12 Level 7 South"}},{"type":"Feature","id":303,"geometry":{"type":"Point","coordinates":[-82.346785199222296,29.596698097453583]},"properties":{"id":303,"JTYPE":"BLP","ASSETID":"BLP200","NAME":"Horse Teaching Unit Bldg 1337 Sam Wall Arena"}},{"type":"Feature","id":304,"geometry":{"type":"Point","coordinates":[-82.341835090492992,29.639498100596015]},"properties":{"id":304,"JTYPE":"BLP","ASSETID":"BLP225","NAME":"Shands Cancer Center Main Enterance Newell Dr"}},{"type":"Feature","id":305,"geometry":{"type":"Point","coordinates":[-82.341125092407594,29.638458103033361]},"properties":{"id":305,"JTYPE":"BLP","ASSETID":"BLP226","NAME":"Shands Park Area East SW 14th Ave"}},{"type":"Feature","id":306,"geometry":{"type":"Point","coordinates":[-82.341525093490219,29.638298101898101]},"properties":{"id":306,"JTYPE":"BLP","ASSETID":"BLP227","NAME":"Shands Park Area West SW 14th Ave"}},{"type":"Feature","id":307,"geometry":{"type":"Point","coordinates":[-82.339515092093535,29.638018108268952]},"properties":{"id":307,"JTYPE":"BLP","ASSETID":"BLP960B","NAME":"Shands Parking Garage P12 Level 1 South"}},{"type":"Feature","id":308,"geometry":{"type":"Point","coordinates":[-82.347855068262888,29.650128081029877]},"properties":{"id":308,"JTYPE":"BLP","ASSETID":"BLP186","NAME":"Ben Hill Eastside Upper Level Section 35"}},{"type":"Feature","id":309,"geometry":{"type":"Point","coordinates":[-82.350105093750798,29.640458076267652]},"properties":{"id":309,"JTYPE":"BLP","ASSETID":"BLP202B","NAME":"SW Parking Garage (TAPS) Bldg 254  Level 1 NW"}},{"type":"Feature","id":310,"geometry":{"type":"Point","coordinates":[-82.36582511691266,29.636048034133914]},"properties":{"id":310,"JTYPE":"BLP","ASSETID":"BLP209","NAME":"Lacrosse Field South"}},{"type":"Feature","id":311,"geometry":{"type":"Point","coordinates":[-82.339475091823616,29.637948107243812]},"properties":{"id":311,"JTYPE":"BLP","ASSETID":"BLP216","NAME":"Shands South Parking Garage P12 SW 14th Ave"}},{"type":"Feature","id":312,"geometry":{"type":"Point","coordinates":[-82.33953509186091,29.638018107323962]},"properties":{"id":312,"JTYPE":"BLP","ASSETID":"BLP961B","NAME":"Shands Parking Garage P12 Level 2 South"}},{"type":"Feature","id":313,"geometry":{"type":"Point","coordinates":[-82.346455095072699,29.639138087602657]},"properties":{"id":313,"JTYPE":"BLP","ASSETID":"BLP244","NAME":"Garage 2 Level 2 @ Elevator"}},{"type":"Feature","id":314,"geometry":{"type":"Point","coordinates":[-82.346495094180128,29.639188088284371]},"properties":{"id":314,"JTYPE":"BLP","ASSETID":"BLP246","NAME":"Garage 2 Level 4 @ Elevator"}},{"type":"Feature","id":315,"geometry":{"type":"Point","coordinates":[-82.339545092257168,29.638008108250116]},"properties":{"id":315,"JTYPE":"BLP","ASSETID":"BLP962B","NAME":"Shands Parking Garage P12 Level 3 South"}},{"type":"Feature","id":316,"geometry":{"type":"Point","coordinates":[-82.339555089823904,29.638718107305319]},"properties":{"id":316,"JTYPE":"BLP","ASSETID":"BLP963A","NAME":"Shands Parking Garage P12 Level 4 North"}},{"type":"Feature","id":317,"geometry":{"type":"Point","coordinates":[-82.339555092641206,29.63801810729499]},"properties":{"id":317,"JTYPE":"BLP","ASSETID":"BLP963B","NAME":"Shands Parking Garage P12 Level 4 South"}},{"type":"Feature","id":318,"geometry":{"type":"Point","coordinates":[-82.33957508972513,29.638708107745405]},"properties":{"id":318,"JTYPE":"BLP","ASSETID":"BLP964A","NAME":"Shands Parking Garage P12 Level 5 North"}},{"type":"Feature","id":319,"geometry":{"type":"Point","coordinates":[-82.339575092401859,29.638008107735093]},"properties":{"id":319,"JTYPE":"BLP","ASSETID":"BLP964B","NAME":"Shands Parking Garage P12 Level 5 South"}},{"type":"Feature","id":320,"geometry":{"type":"Point","coordinates":[-82.370665108409071,29.641038017874383]},"properties":{"id":320,"JTYPE":"BLP","ASSETID":"BLP191","NAME":"Maguire Village Bldg 307"}},{"type":"Feature","id":321,"geometry":{"type":"Point","coordinates":[-82.345875199417577,29.59603809939405]},"properties":{"id":321,"JTYPE":"BLP","ASSETID":"BLP199","NAME":"Horse Teaching Unit Parling Lot"}},{"type":"Feature","id":322,"geometry":{"type":"Point","coordinates":[-82.34924509229964,29.640928079004553]},"properties":{"id":322,"JTYPE":"BLP","ASSETID":"BLP202A","NAME":"SW Parking Garage (TAPS) Bldg 254  Level 1 NW"}},{"type":"Feature","id":323,"geometry":{"type":"Point","coordinates":[-82.34257509181073,29.639088098641398]},"properties":{"id":323,"JTYPE":"BLP","ASSETID":"BLP211","NAME":"Shands Cancer Center North/ Archer Road"}},{"type":"Feature","id":324,"geometry":{"type":"Point","coordinates":[-82.342995093490003,29.638688098052057]},"properties":{"id":324,"JTYPE":"BLP","ASSETID":"BLP212","NAME":"Shands Cancer Center West/ SW 16th St"}},{"type":"Feature","id":325,"geometry":{"type":"Point","coordinates":[-82.340165092517097,29.637978106051438]},"properties":{"id":325,"JTYPE":"BLP","ASSETID":"BLP215","NAME":"Shands SW Parking Garage P12 SW 14th Ave"}},{"type":"Feature","id":326,"geometry":{"type":"Point","coordinates":[-82.34647509430097,29.63915808728763]},"properties":{"id":326,"JTYPE":"BLP","ASSETID":"BLP245","NAME":"Garage 2 Level 3 @ Elevator"}},{"type":"Feature","id":327,"geometry":{"type":"Point","coordinates":[-82.341555075475895,29.645328100300052]},"properties":{"id":327,"JTYPE":"BLP","ASSETID":"BLP187","NAME":"Broward Outdorr Rec Facility"}},{"type":"Feature","id":328,"geometry":{"type":"Point","coordinates":[-82.339505089616438,29.638708107444462]},"properties":{"id":328,"JTYPE":"BLP","ASSETID":"BLP960A","NAME":"Shands Parking Garage P12 Level 1 North"}},{"type":"Feature","id":329,"geometry":{"type":"Point","coordinates":[-82.334525056578173,29.651098119448744]},"properties":{"id":329,"JTYPE":"BLP","ASSETID":"BLP255","NAME":"Infinity Hall NE"}},{"type":"Feature","id":330,"geometry":{"type":"Point","coordinates":[-82.339615074586987,29.645328105923724]},"properties":{"id":330,"JTYPE":"BLP","ASSETID":"BLP254","NAME":"Cypress Hall SW 13th & Museum"}},{"type":"Feature","id":332,"geometry":{"type":"Point","coordinates":[-82.339475057520659,29.651898104823861]},"properties":{"id":332,"JTYPE":"BLP","ASSETID":"BLP143","NAME":"Heavener Hall NE @ 13th St"}},{"type":"Feature","id":333,"geometry":{"type":"Point","coordinates":[-82.340215091013377,29.638658106183989]},"properties":{"id":333,"JTYPE":"BLP","ASSETID":"BLP218","NAME":"Shands North CoGeneration Plant"}},{"type":"Feature","id":334,"geometry":{"type":"Point","coordinates":[-82.346585074378083,29.647378085101607]},"properties":{"id":334,"JTYPE":"BLP","ASSETID":"BLP252","NAME":"Reitz Lawn SW Corner Williamson Hall"}},{"type":"Feature","id":335,"geometry":{"type":"Point","coordinates":[-82.374735119830504,29.637678007799042]},"properties":{"id":335,"JTYPE":"BLP","ASSETID":"BLP250","NAME":" Hull Road Extension West  Bus Loop"}},{"type":"Feature","id":336,"geometry":{"type":"Point","coordinates":[-82.375825120721245,29.637488004960989]},"properties":{"id":336,"JTYPE":"BLP","ASSETID":"BLP251","NAME":" Hull Road Extension East Bus Stop"}},{"type":"Feature","id":338,"geometry":{"type":"Point","coordinates":[-82.354215104684002,29.637238066535232]},"properties":{"id":338,"JTYPE":"BLP","ASSETID":"BLP259","NAME":"Shands HOP 2197 Mowry Rd"}},{"type":"Feature","id":339,"geometry":{"type":"Point","coordinates":[-82.341795085888378,29.640928100349218]},"properties":{"id":339,"JTYPE":"BLP","ASSETID":"BLP249","NAME":"Between Garages 1 & 10 Middle"}},{"type":"Feature","id":340,"geometry":{"type":"Point","coordinates":[-82.341535085803713,29.64104810114128]},"properties":{"id":340,"JTYPE":"BLP","ASSETID":"BLP248","NAME":"Between Garages 1& 10 East side"}},{"type":"Feature","id":341,"geometry":{"type":"Point","coordinates":[-82.349415064231351,29.652278075817382]},"properties":{"id":341,"JTYPE":"BLP","ASSETID":"BLP149","NAME":"SW Emerson Hall"}},{"type":"Feature","id":342,"geometry":{"type":"Point","coordinates":[-82.346595078932978,29.645728086354119]},"properties":{"id":342,"JTYPE":"BLP","ASSETID":"BLP253","NAME":"Constans Theater South/Bus Stop"}},{"type":"Feature","id":344,"geometry":{"type":"Point","coordinates":[-82.375855116114764,29.63940800434694]},"properties":{"id":344,"JTYPE":"BLP","ASSETID":"BLP258","NAME":"Shands FSC North West"}},{"type":"Feature","id":345,"geometry":{"type":"Point","coordinates":[-82.375245115069347,29.63953800584428]},"properties":{"id":345,"JTYPE":"BLP","ASSETID":"BLP256","NAME":"Shands FSC North"}},{"type":"Feature","id":346,"geometry":{"type":"Point","coordinates":[-82.374805115784369,29.639148007074198]},"properties":{"id":346,"JTYPE":"BLP","ASSETID":"BLP257","NAME":"Shands FSC East"}},{"type":"Feature","id":347,"geometry":{"type":"Point","coordinates":[-82.351035095241343,29.640338075040706]},"properties":{"id":347,"JTYPE":"BLP","ASSETID":"BLP168","NAME":"Pony Field Green Way Board Walk NW"}},{"type":"Feature","id":348,"geometry":{"type":"Point","coordinates":[-82.377225120468424,29.637948000592186]},"properties":{"id":348,"JTYPE":"BLP","ASSETID":"BLP114","NAME":"Hull Road Park & Ride Lot West"}},{"type":"Feature","id":349,"geometry":{"type":"Point","coordinates":[-82.34543506789899,29.649858088063016]},"properties":{"id":349,"JTYPE":"BLP","ASSETID":"BLP025","NAME":"Farrior Hall South East"}},{"type":"Feature","id":350,"geometry":{"type":"Point","coordinates":[-82.375115119043727,29.638078006612069]},"properties":{"id":350,"JTYPE":"BLP","ASSETID":"BLP112","NAME":"Hull Road Park & Ride Lot East"}},{"type":"Feature","id":351,"geometry":{"type":"Point","coordinates":[-82.376375120643871,29.637798003754025]},"properties":{"id":351,"JTYPE":"BLP","ASSETID":"BLP113","NAME":"Hull Road Park & Ride Lot Bus Stop"}},{"type":"Feature","id":352,"geometry":{"type":"Point","coordinates":[-82.341265080204053,29.643708101618468]},"properties":{"id":352,"JTYPE":"BLP","ASSETID":"BLP088","NAME":"Jennings/Beaty Bridge"}},{"type":"Feature","id":353,"geometry":{"type":"Point","coordinates":[-82.349225073627849,29.648578077737717]},"properties":{"id":353,"JTYPE":"BLP","ASSETID":"BLP093","NAME":"Gale Lemerand Dr. & Stadium Rd."}},{"type":"Feature","id":354,"geometry":{"type":"Point","coordinates":[-82.351213844305448,29.648800778226114]},"properties":{"id":354,"JTYPE":"BLP","ASSETID":"BLP004","NAME":"O'Connell South Outdoor Pool"}},{"type":"Feature","id":355,"geometry":{"type":"Point","coordinates":[-82.344621223321411,29.651046814905037]},"properties":{"id":355,"JTYPE":"BLP","ASSETID":"BLP041","NAME":"Chem Bio Bldg 275 SW"}},{"type":"Feature","id":641,"geometry":{"type":"Point","coordinates":[-82.344118104479165,29.651729860593022]},"properties":{"id":641,"JTYPE":"BLP","ASSETID":"BLP140","NAME":"Flint North"}},{"type":"Feature","id":961,"geometry":{"type":"Point","coordinates":[-82.337815852601224,29.643752261325176]},"properties":{"id":961,"JTYPE":"BLP","ASSETID":"BLP193","NAME":"SW 9th Ave & Sorority Row Alley"}},{"type":"Feature","id":1281,"geometry":{"type":"Point","coordinates":[-82.335350256019638,29.642084747908143]},"properties":{"id":1281,"JTYPE":"BLP","ASSETID":"BLP266","NAME":"PK Yonge Nort Parking Lot"}},{"type":"Feature","id":1282,"geometry":{"type":"Point","coordinates":[-82.334808454713865,29.639809479299238]},"properties":{"id":1282,"JTYPE":"BLP","ASSETID":"BLP265","NAME":"PK Yonge Cafeteria"}},{"type":"Feature","id":1283,"geometry":{"type":"Point","coordinates":[-82.334915745780393,29.638797713129964]},"properties":{"id":1283,"JTYPE":"BLP","ASSETID":"BLP264","NAME":"PK Yonge GYM Parking Lot"}},{"type":"Feature","id":1601,"geometry":{"type":"Point","coordinates":[-82.353505405904315,29.636450242649712]},"properties":{"id":1601,"JTYPE":"BLP","ASSETID":"BLP267","NAME":"Archer Rd. Commuter Parking East"}},{"type":"Feature","id":1602,"geometry":{"type":"Point","coordinates":[-82.354165228266083,29.636628586074831]},"properties":{"id":1602,"JTYPE":"BLP","ASSETID":"BLP0268","NAME":"Archer Rd. Commuter Parking West"}},{"type":"Feature","id":1603,"geometry":{"type":"Point","coordinates":[-82.361351032870303,29.640017384238146]},"properties":{"id":1603,"JTYPE":"BLP","ASSETID":"BLP269","NAME":"Fifield commuter Lot West"}},{"type":"Feature","id":1604,"geometry":{"type":"Point","coordinates":[-82.360398847746197,29.640262166972676]},"properties":{"id":1604,"JTYPE":"BLP","ASSETID":"BLP270","NAME":"Fifield commuter Lot East"}},{"type":"Feature","id":1921,"geometry":{"type":"Point","coordinates":[-82.351253930443633,29.646333624508912]},"properties":{"id":1921,"JTYPE":"BLP","ASSETID":"BLP037","NAME":"Graham"}},{"type":"Feature","id":2241,"geometry":{"type":"Point","coordinates":[-82.34469494353894,29.647604035399642]},"properties":{"id":2241,"JTYPE":"BLP","ASSETID":"BLP084","NAME":null}},{"type":"Feature","id":2561,"geometry":{"type":"Point","coordinates":[-82.35122881622523,29.639403499899103]},"properties":{"id":2561,"JTYPE":"BLP","ASSETID":"BLP271","NAME":null}},{"type":"Feature","id":2962,"geometry":{"type":"Point","coordinates":[-82.356685863766941,29.648475579114685]},"properties":{"id":2962,"JTYPE":"BLP","ASSETID":null,"NAME":"BLP219"}},{"type":"Feature","id":2963,"geometry":{"type":"Point","coordinates":[-82.357870283850573,29.646239994604244]},"properties":{"id":2963,"JTYPE":"BLP","ASSETID":null,"NAME":"BLP220"}},{"type":"Feature","id":2964,"geometry":{"type":"Point","coordinates":[-82.356150317068526,29.645065697015653]},"properties":{"id":2964,"JTYPE":"BLP","ASSETID":null,"NAME":"BLP221"}},{"type":"Feature","id":2965,"geometry":{"type":"Point","coordinates":[-82.355379181506919,29.644858226783999]},"properties":{"id":2965,"JTYPE":"BLP","ASSETID":null,"NAME":"BLP222"}}]}